,City,Lat,Long,temp,Humidity,Cloudiness,Wind Speed,Country,Date
0,butaritari,3.0707,172.7902,82.49,65,13,11.79,KI,1628439829
1,mataura,-46.1927,168.8643,34.48,99,99,3.6,NZ,1628440411
2,saint-joseph,-21.3667,55.6167,68.31,81,19,5.99,RE,1628440412
3,kaitangata,-46.2817,169.8464,34.32,93,78,8.52,NZ,1628439876
4,chahal,15.75,-89.5667,84.11,66,99,3.38,GT,1628440415
5,punta arenas,-53.15,-70.9167,42.91,70,75,24.16,CL,1628440372
6,mizan teferi,6.9833,35.5833,61.61,97,99,1.14,ET,1628440417
7,khatanga,71.9667,102.5,52.83,65,95,14.2,RU,1628439854
8,kandrian,-6.2167,149.55,76.48,91,100,6.96,PG,1628440419
9,chapais,49.7834,-74.8492,65.98,33,26,6.76,CA,1628439969
10,balkanabat,39.5108,54.3671,102.76,9,0,8.77,TM,1628439826
11,vichuga,57.2128,41.9301,72.21,59,100,6.46,RU,1628440423
12,mahebourg,-20.4081,57.7,68.29,100,75,5.75,MU,1628439835
13,rikitea,-23.1203,-134.9692,74.44,74,38,11.54,PF,1628440426
14,vera cruz,-12.6333,-41.0333,78.37,49,90,6.82,BR,1628440427
15,kapaa,22.0752,-159.319,74.46,64,75,11.5,US,1628440428
16,kozluk,38.1938,41.4885,84.45,20,27,7.25,TR,1628440430
17,tuktoyaktuk,69.4541,-133.0374,46.4,87,90,12.66,CA,1628440431
18,avarua,-21.2078,-159.775,73.45,68,90,4.61,CK,1628439854
19,klaksvik,62.2266,-6.589,54.52,92,85,9.62,FO,1628440433
20,port alfred,-33.5906,26.891,66.11,59,61,16.71,ZA,1628440435
21,bluff,-46.6,168.3333,34.81,64,64,15.77,NZ,1628440423
22,asau,46.4333,26.4,79.72,62,14,0.51,RO,1628440437
23,ipora,-16.4419,-51.1178,87.53,21,0,5.84,BR,1628440439
24,cagliliog,13.9016,123.2913,81.32,81,98,8.9,PH,1628440440
25,marsh harbour,26.5412,-77.0636,84.0,70,13,8.34,BS,1628440441
26,atuona,-9.8,-139.0333,77.22,81,86,18.41,PF,1628440444
27,vestmannaeyjar,63.4427,-20.2734,59.99,67,0,14.97,IS,1628440445
28,kununurra,-15.7667,128.7333,55.38,67,3,0.0,AU,1628440352
29,esperance,-33.8667,121.9,62.44,77,8,14.74,AU,1628440448
30,bako,5.7833,36.5667,68.94,63,96,3.13,ET,1628440450
31,puerto madryn,-42.7692,-65.0385,53.1,34,0,6.11,AR,1628440452
32,half moon bay,37.4636,-122.4286,63.46,85,90,1.01,US,1628440212
33,mwinilunga,-11.7358,24.4293,69.15,24,22,5.79,ZM,1628440454
34,kineshma,57.4391,42.1289,71.46,61,100,5.53,RU,1628440455
35,mount isa,-20.7333,139.5,47.97,49,0,0.0,AU,1628440457
36,carnarvon,-24.8667,113.6333,66.27,80,0,6.91,AU,1628439600
37,tamandare,-8.7597,-35.1047,77.31,73,69,11.32,BR,1628440459
38,dikson,73.5069,80.5464,48.34,73,2,3.51,RU,1628440460
39,ushuaia,-54.8,-68.3,42.46,61,75,12.66,AR,1628440462
40,chuy,-33.6971,-53.4616,70.05,70,83,4.16,UY,1628439890
41,hilo,19.7297,-155.09,70.03,91,61,1.99,US,1628440464
42,barrow,71.2906,-156.7887,37.42,93,90,10.36,US,1628440268
43,jamestown,42.097,-79.2353,77.68,68,20,3.0,US,1628440219
44,cidreira,-30.1811,-50.2056,66.72,72,3,8.55,BR,1628440469
45,saint-michel-des-saints,46.6834,-73.9159,77.22,44,30,3.22,CA,1628440470
46,ambon,-3.6954,128.1814,75.34,100,40,6.91,ID,1628440410
47,kahului,20.8947,-156.47,71.74,81,40,12.66,US,1628439900
48,albany,42.6001,-73.9662,81.01,66,91,2.53,US,1628440474
49,bredasdorp,-34.5322,20.0403,60.12,55,100,18.41,ZA,1628440475
50,dingzhou,38.5131,114.9956,73.51,92,98,4.81,CN,1628440476
51,conakry,9.538,-13.6773,86.07,70,40,13.8,GN,1628440411
52,busselton,-33.65,115.3333,56.05,85,38,23.55,AU,1628440479
53,ponta do sol,32.6667,-17.1,73.92,77,64,2.77,PT,1628440480
54,hambantota,6.1241,81.1185,78.84,82,52,16.42,LK,1628440482
55,salalah,17.0151,54.0924,78.89,89,90,5.75,OM,1628439816
56,nara,34.6851,135.8049,83.48,75,100,5.28,JP,1628440485
57,tirunelveli,8.7333,77.7,82.78,67,90,10.65,IN,1628440486
58,neuquen,-38.9516,-68.0591,49.89,43,0,4.61,AR,1628440240
59,mar del plata,-38.0023,-57.5575,50.02,66,0,11.5,AR,1628440465
60,craig,40.5153,-107.5464,69.24,32,1,9.22,US,1628440491
61,korsakov,46.6328,142.7813,57.04,90,100,18.75,RU,1628440492
62,cape town,-33.9258,18.4232,59.56,78,75,5.01,ZA,1628440248
63,touros,-5.1989,-35.4608,81.5,65,50,19.95,BR,1628440496
64,vila velha,-20.3297,-40.2925,71.55,73,75,9.22,BR,1628440287
65,pisco,-13.7,-76.2167,62.65,77,90,2.3,PE,1628440372
66,barcelos,41.5388,-8.6151,72.81,56,20,11.63,PT,1628440423
67,dedougou,12.4667,-3.4667,89.15,50,97,5.99,BF,1628440503
68,loukhi,66.0764,33.0381,61.27,59,97,10.45,RU,1628439930
69,pingliang,35.5392,106.6861,69.28,56,50,8.21,CN,1628440505
70,tasiilaq,65.6145,-37.6368,44.76,96,100,19.13,GL,1628440415
71,taseyevo,57.2169,94.8978,60.8,83,64,2.57,RU,1628440510
72,rocha,-34.4833,-54.3333,59.83,89,97,10.42,UY,1628440302
73,georgetown,5.4112,100.3354,82.6,84,40,3.44,MY,1628440247
74,east london,-33.0153,27.9116,76.14,20,0,5.75,ZA,1628440514
75,matara,5.9485,80.5353,76.78,92,72,9.6,LK,1628440406
76,isangel,-19.55,169.2667,69.03,74,83,10.31,VU,1628439965
77,sri aman,1.2376,111.4621,73.45,94,100,3.44,MY,1628440517
78,ha giang,22.8333,104.9833,80.51,96,100,1.7,VN,1628440515
79,new norfolk,-42.7826,147.0587,43.03,82,12,2.98,AU,1628440516
80,atambua,-9.1061,124.8925,67.91,85,30,4.16,ID,1628440521
81,san lorenzo,-25.3333,-57.5333,86.94,35,0,11.5,PY,1628440420
82,banjar,-8.19,114.9675,78.66,89,64,3.74,ID,1628440523
83,narsaq,60.9167,-46.05,50.22,62,15,11.41,GL,1628440525
84,bethel,41.3712,-73.414,73.96,72,1,6.91,US,1628440526
85,paracatu,-17.2222,-46.8747,79.52,27,0,7.7,BR,1628440527
86,kodiak,57.79,-152.4072,54.91,94,90,0.0,US,1628440528
87,nanortalik,60.1432,-45.2371,44.38,85,39,12.73,GL,1628440443
88,hobart,-42.8794,147.3294,43.9,83,10,3.0,AU,1628440306
89,tirodi,21.6833,79.7,78.13,87,100,3.29,IN,1628440532
90,camopi,3.1655,-52.3158,91.09,44,39,5.12,GF,1628440269
91,puerto ayora,-0.7393,-90.3518,71.55,84,37,8.01,EC,1628440274
92,bousse,12.6606,-1.8922,90.97,45,100,8.37,BF,1628440537
93,torbay,47.6666,-52.7314,76.1,77,75,14.97,CA,1628440532
94,miguel auza,24.2933,-103.4503,73.38,45,5,9.62,MX,1628440539
95,kidal,18.4411,1.4078,96.8,33,82,16.31,ML,1628440541
96,nowy sacz,49.6218,20.6971,74.75,80,87,2.66,PL,1628440542
97,nelson bay,-32.7167,152.15,56.19,72,99,9.84,AU,1628440364
98,saint george,37.1041,-113.5841,83.12,21,1,0.0,US,1628440262
99,mana,5.6592,-53.7767,85.06,67,36,5.57,GF,1628440547
100,bahia de caraquez,-0.6,-80.4167,75.38,74,93,7.61,EC,1628440548
101,pinawa,50.1489,-95.8811,81.9,49,32,9.46,CA,1628440549
102,kruisfontein,-34.0033,24.7314,62.89,81,89,11.54,ZA,1628440456
103,bengkulu,-3.8004,102.2655,76.87,92,52,4.09,ID,1628440465
104,qaanaaq,77.484,-69.3632,39.42,67,37,2.89,GL,1628440545
105,funadhoo,6.15,73.2667,81.72,72,100,16.64,MV,1628440554
106,sinnamary,5.3833,-52.95,86.63,64,58,12.39,GF,1628440555
107,port macquarie,-31.4333,152.9167,51.76,64,97,2.3,AU,1628440292
108,flin flon,54.7682,-101.865,62.44,88,90,4.61,CA,1628440558
109,lompoc,34.6391,-120.4579,61.88,90,90,0.0,US,1628440348
110,luderitz,-26.6481,15.1594,57.96,79,69,6.82,NA,1628440535
111,rawson,-43.3002,-65.1023,51.96,38,0,7.34,AR,1628440338
112,la ronge,55.1001,-105.2842,61.05,82,75,5.75,CA,1628440349
113,trairi,-3.2778,-39.2689,86.02,54,2,17.94,BR,1628440227
114,cabo san lucas,22.8909,-109.9124,88.65,65,1,4.0,MX,1628440566
115,central point,42.376,-122.9164,68.63,64,1,3.0,US,1628440567
116,otwock,52.1058,21.2613,75.31,59,67,3.78,PL,1628440418
117,ahipara,-35.1667,173.1667,49.15,70,99,21.3,NZ,1628440570
118,schweinfurt,50.05,10.2333,65.68,70,78,9.1,DE,1628440571
119,general pico,-35.6566,-63.7568,45.86,70,99,13.13,AR,1628440574
120,mehamn,71.0357,27.8492,73.35,38,0,10.36,NO,1628440575
121,viedma,-40.8135,-62.9967,55.6,33,59,13.47,AR,1628440457
122,kralendijk,12.15,-68.2667,87.78,62,40,10.36,BQ,1628439986
123,paragominas,-2.9667,-47.4833,93.85,31,7,6.55,BR,1628440579
124,hanting,36.7708,119.2108,71.92,73,37,2.53,CN,1628440580
125,terenos,-20.4422,-54.8603,89.31,27,40,9.22,BR,1628440581
126,mayumba,-3.432,10.6554,73.38,80,99,5.82,GA,1628440425
127,beian,63.6559,9.5683,69.89,60,40,9.22,NO,1628440584
128,codrington,-38.2667,141.9667,45.75,75,85,9.4,AU,1628440538
129,lebu,-37.6167,-73.65,50.36,65,42,10.89,CL,1628440528
130,nangomba,-10.9,38.5,80.76,31,38,1.21,TZ,1628440588
131,umm kaddadah,13.6017,26.6876,87.44,42,81,8.9,SD,1628440353
132,pitimbu,-7.4706,-34.8086,84.79,68,75,16.87,BR,1628440590
133,berlin,52.5244,13.4105,73.38,47,0,15.01,DE,1628440506
134,hermanus,-34.4187,19.2345,61.81,72,100,25.08,ZA,1628440518
135,vaini,-21.2,-175.2,64.56,88,40,2.3,TO,1628440517
136,mecca,21.4267,39.8261,95.72,29,1,11.39,SA,1628440595
137,caxito,-8.5785,13.6643,75.85,60,58,8.16,AO,1628440596
138,impfondo,1.6381,18.0667,77.05,73,75,2.3,CG,1628440598
139,yellowknife,62.456,-114.3525,50.52,57,75,8.05,CA,1628440429
140,dangriga,16.9692,-88.2321,86.99,79,88,13.15,BZ,1628440600
141,hirara,24.8,125.2833,81.68,86,78,12.68,JP,1628440601
142,autun,46.95,4.3,68.81,59,36,4.54,FR,1628440603
143,ganzhou,28.8184,115.4327,82.18,75,99,3.15,CN,1628440551
144,bom conselho,-9.1697,-36.6797,69.57,66,59,11.34,BR,1628440605
145,nador,35.174,-2.9287,82.65,36,0,10.36,MA,1628440589
146,constitucion,-35.3333,-72.4167,53.22,55,99,4.14,CL,1628440543
147,cayenne,4.9333,-52.3333,87.1,76,40,5.01,GF,1628440524
148,honiara,-9.4333,159.95,76.32,88,99,3.44,SB,1628440611
149,port blair,11.6667,92.75,82.45,83,88,10.42,IN,1628440374
150,quatre cocos,-20.2078,57.7625,69.1,90,95,20.27,MU,1628440497
151,bestobe,52.4994,73.0975,62.73,79,71,5.28,KZ,1628440615
152,college,64.8569,-147.8028,55.83,88,75,4.61,US,1628440616
153,talnakh,69.4865,88.3972,62.47,48,0,3.94,RU,1628440469
154,leningradskiy,69.3833,178.4167,36.43,83,59,15.17,RU,1628440428
155,husavik,66.0449,-17.3389,58.91,84,33,8.34,IS,1628440620
156,oistins,13.0667,-59.5333,87.89,74,40,21.85,BB,1628440621
157,zonguldak,41.25,31.8333,65.55,91,97,2.33,TR,1628440622
158,jalu,29.0331,21.5482,98.06,15,0,10.67,LY,1628440607
159,marawi,7.9986,124.2928,67.64,94,100,2.89,PH,1628440568
160,broome,42.2506,-75.833,80.58,61,1,1.99,US,1628440626
161,saint-philippe,-21.3585,55.7679,69.31,83,33,8.63,RE,1628440412
162,port said,31.2565,32.2841,87.78,70,0,8.05,EG,1628440300
163,prestea,5.4327,-2.1428,80.33,72,96,6.46,GH,1628440629
164,hammerfest,70.6634,23.6821,73.85,35,0,13.8,NO,1628440631
165,avera,33.194,-82.5271,86.59,47,13,2.44,US,1628440468
166,katima mulilo,-17.5,24.2667,70.29,20,0,3.06,NA,1628440633
167,pevek,69.7008,170.3133,36.73,84,87,8.21,RU,1628440551
168,lillooet,50.6856,-121.942,61.52,72,97,3.04,CA,1628440636
169,castro,-24.7911,-50.0119,70.57,47,26,6.62,BR,1628440423
170,cherskiy,68.75,161.3,47.68,60,28,2.17,RU,1628440558
171,nizwa,22.9333,57.5333,102.52,18,89,4.29,OM,1628440640
172,thompson,55.7435,-97.8558,64.56,94,90,4.61,CA,1628440352
173,saravena,6.9538,-71.8752,83.8,76,91,3.27,CO,1628440643
174,kattivakkam,13.2167,80.3167,86.09,75,20,12.77,IN,1628440644
175,sao gabriel da cachoeira,-0.1303,-67.0892,82.2,89,75,8.05,BR,1628440646
176,arraial do cabo,-22.9661,-42.0278,73.26,68,20,25.32,BR,1628440554
177,nikolskoye,59.7035,30.7861,71.49,89,99,3.22,RU,1628440543
178,ostrzeszow,51.4264,17.9336,75.09,56,71,3.09,PL,1628440649
179,banda aceh,5.5577,95.3222,80.49,83,99,6.06,ID,1628440650
180,santa rosa,14.3122,121.1114,81.64,87,92,5.03,PH,1628440547
181,awjilah,29.1081,21.2869,97.36,14,0,11.59,LY,1628440653
182,rantepao,-2.9701,119.8978,65.16,97,65,1.92,ID,1628440654
183,guerrero negro,27.9769,-114.0611,75.88,66,6,9.98,MX,1628440550
184,lorengau,-2.0226,147.2712,80.62,79,62,9.71,PG,1628440297
185,hobyo,5.3505,48.5268,77.05,84,100,26.66,SO,1628440282
186,hasaki,35.7333,140.8333,79.2,90,100,9.01,JP,1628440528
187,nuevo casas grandes,30.4167,-107.9167,79.75,54,43,4.0,MX,1628440478
188,bac lieu,9.285,105.7244,81.09,85,70,10.2,VN,1628440661
189,ishigaki,24.3448,124.1572,82.22,88,79,8.43,JP,1628440346
190,srednekolymsk,67.45,153.6833,49.15,73,6,2.59,RU,1628440479
191,alofi,-19.0595,-169.9187,71.49,88,99,9.22,NU,1628440665
192,krasnovishersk,60.4078,57.082,55.0,85,100,5.01,RU,1628440652
193,severo-kurilsk,50.6789,156.125,52.75,80,38,10.25,RU,1628440600
194,zhigansk,66.7697,123.3711,59.05,45,99,8.03,RU,1628440349
195,brae,60.3964,-1.353,57.11,82,88,8.05,GB,1628440434
196,chokurdakh,70.6333,147.9167,50.94,62,82,7.76,RU,1628440571
197,paita,-5.0892,-81.1144,75.76,66,2,12.57,PE,1628440673
198,igarka,67.4667,86.5833,58.55,67,2,6.44,RU,1628440674
199,malakal,9.5334,31.6605,74.28,89,99,0.78,SS,1628440209
200,acapulco,16.8634,-99.8901,84.02,74,75,0.0,MX,1628440335
201,siparia,10.1333,-61.5,85.33,78,36,5.99,TT,1628440678
202,nantucket,41.2835,-70.0995,80.65,61,90,8.05,US,1628440187
203,san andres,12.5847,-81.7006,87.82,70,75,18.41,CO,1628440508
204,ayan,56.45,138.1667,53.22,62,54,6.35,RU,1628440681
205,lincoln,40.8,-96.667,78.84,69,1,1.99,US,1628440431
206,fort nelson,58.8053,-122.7002,51.39,93,75,2.3,CA,1628440658
207,flinders,-34.5833,150.8552,50.58,81,100,4.56,AU,1628440478
208,upernavik,72.7868,-56.1549,40.89,87,89,4.5,GL,1628440451
209,shaowu,27.3409,117.4831,77.31,91,56,0.89,CN,1628440687
210,kargasok,59.0556,80.8572,64.62,72,64,3.02,RU,1628440324
211,baykit,61.67,96.37,58.57,72,99,1.86,RU,1628440334
212,vardo,70.3705,31.1107,57.18,77,0,5.75,NO,1628440608
213,praia da vitoria,38.7333,-27.0667,79.05,65,75,18.45,PT,1628440692
214,baiyin,36.5583,104.2081,68.88,55,56,4.38,CN,1628440693
215,sorland,67.667,12.6934,60.66,71,98,15.68,NO,1628440641
216,coihaique,-45.5752,-72.0662,46.35,57,20,4.61,CL,1628440425
217,port hardy,50.6996,-127.4199,59.18,88,90,8.05,CA,1628440362
218,najran,17.4924,44.1277,95.65,13,77,12.46,SA,1628440302
219,alyangula,-13.8483,136.4192,64.27,94,0,0.0,AU,1628440701
220,nurota,40.5614,65.6886,89.69,13,0,7.36,UZ,1628440703
221,namwala,-15.7504,26.4384,71.37,27,0,5.37,ZM,1628440704
222,sechura,-5.5569,-80.8222,75.09,55,6,9.53,PE,1628440705
223,basco,20.4487,121.9702,84.04,83,100,24.18,PH,1628440323
224,butembo,0.15,29.2833,59.67,95,70,1.95,CD,1628440709
225,leticia,-4.2153,-69.9406,89.65,58,75,3.44,CO,1628440710
226,anadyr,64.75,177.4833,43.3,75,0,13.42,RU,1628440577
227,kloulklubed,7.0419,134.2556,75.7,76,100,20.98,PW,1628440563
228,noumea,-22.2763,166.4572,62.58,64,75,10.85,NC,1628440579
229,hamilton,39.1834,-84.5333,85.95,63,1,1.99,US,1628440716
230,kita,13.0349,-9.4895,80.08,80,97,7.81,ML,1628440717
231,airai,-8.9266,125.4092,54.7,87,37,1.68,TL,1628440533
232,kutum,14.2,24.6667,73.8,60,66,7.0,SD,1628440340
233,nioro,13.35,-15.75,84.85,69,83,9.91,GM,1628440721
234,iqaluit,63.7506,-68.5145,42.53,93,90,6.91,CA,1628440525
235,mayo,38.8876,-76.5119,81.66,68,1,8.01,US,1628440315
236,pangnirtung,66.1451,-65.7125,48.2,76,90,13.8,CA,1628440599
237,dhidhdhoo,6.8833,73.1,82.06,69,100,20.18,MV,1628440522
238,knysna,-34.0363,23.0471,57.58,85,71,1.99,ZA,1628440727
239,opuwo,-18.0607,13.84,73.83,13,5,7.11,NA,1628440309
240,samarai,-10.6167,150.6667,77.85,79,99,16.84,PG,1628440346
241,batemans bay,-35.7167,150.1833,44.91,81,64,4.81,AU,1628440730
242,sitka,57.0531,-135.33,57.09,88,90,5.75,US,1628440541
243,mao,39.8885,4.2658,79.36,53,0,13.8,ES,1628440733
244,karpogory,64.0019,44.4451,60.62,58,100,5.61,RU,1628440734
245,channel-port aux basques,47.5702,-59.1367,64.27,84,14,14.27,CA,1628440213
246,san jeronimo,-11.9472,-75.2829,63.52,26,0,2.64,PE,1628440737
247,shubarkuduk,49.1447,56.4872,77.43,33,13,6.33,KZ,1628440738
248,norman wells,65.282,-126.8329,48.24,71,90,8.05,CA,1628440542
249,natchitoches,31.7668,-93.1335,88.36,66,75,6.91,US,1628440740
250,douai,50.3333,3.1667,64.83,67,85,13.09,FR,1628440742
251,tautira,-17.7333,-149.15,73.42,77,81,8.08,PF,1628440572
252,vicuna,-30.0319,-70.7081,51.53,53,56,7.47,CL,1628440744
253,faanui,-16.4833,-151.75,78.85,74,41,13.31,PF,1628440596
254,ribeira grande,38.5167,-28.7,77.4,65,40,14.97,PT,1628440449
255,bambous virieux,-20.3428,57.7575,68.25,100,75,5.75,MU,1628440517
256,kurmanayevka,52.5093,52.0675,77.04,40,30,7.43,RU,1628440749
257,lexington,37.9887,-84.4777,83.84,65,1,1.01,US,1628440268
258,ukiah,39.1502,-123.2078,72.01,63,1,4.61,US,1628440201
259,verkhoyansk,67.5447,133.385,62.62,52,4,2.57,RU,1628440753
260,sao joao da barra,-21.6403,-41.0511,75.29,67,98,12.17,BR,1628440754
261,sao filipe,14.8961,-24.4956,79.97,78,18,9.06,CV,1628440577
262,mount gambier,-37.8333,140.7667,46.31,87,52,9.22,AU,1628440444
263,pemangkat,1.1667,108.9667,80.53,81,99,3.04,ID,1628440595
264,saskylakh,71.9167,114.0833,60.35,57,96,10.16,RU,1628440462
265,sabang,5.8933,95.3214,83.14,78,100,11.18,ID,1628440760
266,cao bang,22.6667,106.25,79.52,93,100,0.63,VN,1628440761
267,rio grande,-32.035,-52.0986,84.31,65,1,4.61,BR,1628440357
268,port elizabeth,-33.918,25.5701,61.09,82,0,19.57,ZA,1628440536
269,varna,43.2167,27.9167,78.84,57,0,10.36,BG,1628440517
270,hithadhoo,-0.6,73.0833,82.71,72,97,5.79,MV,1628440436
271,kencong,-8.2833,113.3667,74.93,93,30,3.02,ID,1628440767
272,katsuura,35.1333,140.3,84.31,91,100,18.99,JP,1628440531
273,punto fijo,11.6956,-70.1996,87.22,57,59,15.55,VE,1628440769
274,gambo,4.6482,22.2633,74.95,79,90,2.75,CF,1628440772
275,madang,-5.2246,145.7966,75.24,92,100,1.43,PG,1628440773
276,bonavista,48.6499,-53.1147,62.6,95,99,21.0,CA,1628440209
277,stettler,52.3168,-112.7186,56.95,100,93,12.66,CA,1628440776
278,port-gentil,-0.7193,8.7815,78.76,78,90,11.5,GA,1628440777
279,santa cruz,-17.8,-63.1667,87.85,42,20,24.16,BO,1628440778
280,rundu,-17.9333,19.7667,70.12,12,2,4.38,NA,1628440780
281,ulaangom,49.9811,92.0667,60.64,67,56,1.7,MN,1628440781
282,teya,60.3778,92.6267,64.4,64,99,2.98,RU,1628440360
283,jinchang,38.4953,102.1739,76.21,22,67,3.24,CN,1628440783
284,harper,4.375,-7.7169,79.45,75,86,11.5,LR,1628440325
285,broken hill,-31.95,141.4333,44.31,70,0,10.36,AU,1628440786
286,provideniya,64.3833,-173.3,44.46,86,100,14.09,RU,1628440612
287,skibbereen,51.55,-9.2667,64.2,87,86,11.18,IE,1628440788
288,montemor-o-novo,38.6481,-8.2145,85.41,20,0,13.47,PT,1628440790
289,crotone,39.0851,17.1178,85.95,61,0,19.57,IT,1628440791
290,fonte boa,-2.4959,-66.2662,90.55,53,95,2.06,BR,1628440792
291,leh,34.1667,77.5833,64.83,43,10,7.47,IN,1628440626
292,mayna,54.1135,47.6231,72.54,44,48,5.55,RU,1628440795
293,cardoso,-20.0819,-49.9142,84.79,25,0,5.82,BR,1628440796
294,nouakchott,18.0858,-15.9785,84.13,75,17,17.31,MR,1628440386
295,hellvik,59.9156,5.781,66.97,62,90,3.04,NO,1628440798
296,rovaniemi,66.5,25.7167,60.21,82,90,18.41,FI,1628440800
297,ilulissat,69.2167,-51.1,42.82,93,75,13.8,GL,1628440556
298,tiksi,71.6872,128.8694,45.14,88,9,6.22,RU,1628440455
299,berlevag,70.8578,29.0864,71.4,60,10,11.77,NO,1628440566
300,karaton,-6.3424,106.1045,80.76,92,13,1.61,ID,1628440807
301,havre-saint-pierre,50.2334,-63.5986,66.56,45,40,5.75,CA,1628440540
302,svetlyy,54.675,20.1347,71.65,80,33,7.52,RU,1628440810
303,emerald,-23.5333,148.1667,50.14,46,0,4.61,AU,1628440811
304,akdagmadeni,39.6603,35.8836,61.14,80,96,2.17,TR,1628440812
305,hatillo,18.4863,-66.8254,87.46,68,22,19.93,PR,1628440814
306,shingu,33.7333,135.9833,81.91,95,100,12.95,JP,1628440815
307,whitehorse,60.7161,-135.0538,56.21,76,75,5.75,CA,1628440672
308,san patricio,28.017,-97.5169,89.69,52,9,17.72,US,1628440818
309,plouzane,48.3833,-4.6167,62.74,79,75,16.11,FR,1628440820
310,merauke,-8.4667,140.3333,75.02,88,99,11.56,ID,1628440821
311,evensk,61.95,159.2333,51.93,70,39,10.76,RU,1628440823
312,trinidad,-14.8333,-64.9,89.58,48,7,9.22,BO,1628440824
313,bakchar,57.0186,82.0711,60.62,94,64,2.93,RU,1628440825
314,tezu,27.9167,96.1667,77.74,98,98,2.35,IN,1628440827
315,nur,52.6683,22.3221,68.79,79,43,6.58,PL,1628440828
316,saint-pierre,-21.3393,55.4781,69.39,68,0,6.91,RE,1628440460
317,svetlogorsk,52.6333,29.7333,73.13,55,71,2.62,BY,1628440316
318,bilma,18.6853,12.9164,102.06,20,74,8.12,NE,1628440652
319,sovetskiy,61.3614,63.5842,61.84,85,68,5.35,RU,1628440229
320,plavinas,56.6178,25.7255,64.53,91,100,5.26,LV,1628440834
321,gryfice,53.9165,15.2003,71.85,64,49,11.36,PL,1628440835
322,olafsvik,64.8945,-23.7142,57.76,78,100,6.96,IS,1628440837
323,geraldton,-28.7667,114.6,64.81,82,75,14.97,AU,1628440271
324,nsanje,-16.92,35.262,72.5,41,0,4.45,MW,1628440839
325,riyadh,24.6877,46.7219,105.94,12,64,14.67,SA,1628440665
326,tuatapere,-46.1333,167.6833,34.83,84,99,6.82,NZ,1628440592
327,souillac,-20.5167,57.5167,68.38,100,75,5.75,MU,1628440432
328,mitsamiouli,-11.3847,43.2844,77.02,66,43,7.36,KM,1628440844
329,the pas,53.8251,-101.2541,66.22,88,90,8.52,CA,1628440390
330,san quintin,30.4833,-115.95,72.16,68,13,8.72,MX,1628440603
331,hualmay,-11.0964,-77.6139,66.47,72,65,10.94,PE,1628440343
332,nizhniy ingash,56.2,96.53,59.14,71,36,2.44,RU,1628440849
333,shimoda,34.6667,138.95,82.51,87,100,17.36,JP,1628440578
334,puerto colombia,10.9878,-74.9547,87.89,67,100,11.83,CO,1628440662
335,arrigorriaga,43.2101,-2.8856,71.06,52,40,1.01,ES,1628440852
336,berdigestyakh,62.0989,126.6992,57.54,69,36,5.95,RU,1628440409
337,port-cartier,50.0334,-66.8654,65.1,43,10,6.98,CA,1628440855
338,saldanha,-33.0117,17.9442,57.25,82,100,17.31,ZA,1628440571
339,smithers,54.7804,-127.1743,53.92,82,20,0.0,CA,1628440408
340,moses lake,47.1301,-119.2781,60.49,59,90,18.41,US,1628440636
341,nome,64.5011,-165.4064,51.87,72,90,8.05,US,1628440754
342,colares,38.7992,-9.4469,74.05,40,20,24.16,PT,1628440864
343,chake chake,-5.2459,39.7666,73.24,80,14,9.28,TZ,1628440865
344,balakhninskiy,58.0106,114.2769,57.83,98,94,0.34,RU,1628440867
345,port lincoln,-34.7333,135.8667,54.86,63,62,10.38,AU,1628440547
346,qaqortoq,60.7167,-46.0333,50.5,76,9,17.98,GL,1628440869
347,jasper,37.2001,-94.3502,80.06,85,40,3.0,US,1628440870
348,beira,-19.8436,34.8389,68.09,77,0,4.61,MZ,1628440682
349,buala,-8.145,159.5921,77.92,80,91,1.07,SB,1628440600
350,hofn,64.2539,-15.2082,64.42,59,20,5.75,IS,1628440874
351,port moresby,-9.4431,147.1797,76.42,83,40,11.5,PG,1628440875
352,faya,18.3851,42.4509,73.92,67,79,6.8,SA,1628440314
353,walvis bay,-22.9575,14.5053,63.55,63,6,12.66,NA,1628440394
354,bilibino,68.0546,166.4372,43.83,58,77,3.78,RU,1628440606
355,thai binh,20.45,106.3333,87.8,80,99,6.26,VN,1628440720
356,solnechnyy,50.7214,136.6319,49.08,100,100,4.29,RU,1628440886
357,zhigalovo,54.8097,105.1578,53.15,70,32,1.68,RU,1628440582
358,sur,22.5667,59.5289,90.45,56,0,9.57,OM,1628440481
359,tahe,52.3333,124.7333,53.89,99,100,4.81,CN,1628440889
360,beloha,-25.1667,45.05,64.74,78,0,6.49,MG,1628440892
361,cockburn town,21.4612,-71.1419,85.96,66,40,16.11,TC,1628440634
362,huilong,31.8111,121.655,78.98,80,10,4.41,CN,1628440894
363,haapiti,-17.5667,-149.8667,73.13,75,78,7.54,PF,1628440611
364,kenai,60.5544,-151.2583,52.93,93,90,12.66,US,1628440337
365,songadh,21.1667,73.5667,78.28,86,100,6.64,IN,1628440898
366,koutsouras,35.0339,25.9469,80.38,54,0,13.33,GR,1628440900
367,paamiut,61.994,-49.6678,43.65,85,88,8.48,GL,1628440601
368,palmas,-10.2128,-48.3603,89.47,33,20,6.91,BR,1628440903
369,shahr-e kord,32.3256,50.8644,78.57,24,40,6.91,IR,1628440904
370,matata,-37.8833,176.75,44.94,89,20,9.37,NZ,1628440905
371,hami,42.8,93.45,84.83,14,26,6.8,CN,1628440538
372,haizhou,34.5817,119.1289,73.53,86,66,2.64,CN,1628440909
373,muravlenko,63.7898,74.523,66.29,47,1,5.61,RU,1628440911
374,victoria,22.2855,114.1577,85.37,90,100,9.28,HK,1628440521
375,sakakah,29.9697,40.2064,103.57,11,0,6.42,SA,1628440914
376,puerto escondido,15.85,-97.0667,88.63,62,40,5.75,MX,1628440552
377,gizo,-8.103,156.8419,80.26,74,66,5.3,SB,1628440917
378,alamogordo,32.8995,-105.9603,87.53,32,1,5.75,US,1628440914
379,jiexiu,37.0244,111.9125,69.73,81,58,1.16,CN,1628440696
380,koungou,-12.7336,45.2042,78.51,73,90,10.36,YT,1628440920
381,bud,39.447,-86.1758,82.4,67,80,8.75,US,1628440922
382,kazachinskoye,57.6953,93.2761,63.79,78,87,2.91,RU,1628440923
383,ketchikan,55.3422,-131.6461,61.27,82,90,5.75,US,1628440398
384,poddorye,57.4695,31.1156,65.97,87,93,4.65,RU,1628440925
385,tabou,4.423,-7.3528,79.41,76,69,11.83,CI,1628440669
386,yumen,40.2833,97.2,74.88,19,6,13.58,CN,1628440928
387,naryan-mar,67.6713,53.087,50.27,83,0,7.34,RU,1628440930
388,fortuna,40.5982,-124.1573,57.7,96,90,5.75,US,1628440585
389,te anau,-45.4167,167.7167,31.64,98,83,1.1,NZ,1628440869
390,kaupanger,61.1845,7.2404,70.29,48,40,4.61,NO,1628440934
391,ancud,-41.8697,-73.8203,47.32,61,3,3.89,CL,1628440471
392,bure,10.7,37.0667,57.88,96,98,4.23,ET,1628440936
393,odweyne,9.4092,45.064,79.21,48,51,8.08,SO,1628440938
394,boyolangu,-8.1181,111.8935,74.37,95,47,2.37,ID,1628440939
395,chabahar,25.2919,60.643,82.62,81,3,7.43,IR,1628440940
396,irituia,-1.7711,-47.4381,90.99,45,13,5.14,BR,1628440942
397,lagoa,39.05,-27.9833,71.82,84,73,17.9,PT,1628440539
398,sao felix do xingu,-6.6447,-51.995,97.99,22,19,3.51,BR,1628440944
399,siniscola,40.5719,9.6922,87.35,54,48,5.93,IT,1628440945
400,kyshtovka,56.555,76.6271,63.73,91,61,6.85,RU,1628440947
401,laguna,38.421,-121.4238,74.35,64,1,8.05,US,1628440948
402,forio,40.7342,13.8646,84.88,79,36,3.0,IT,1628440949
403,konyar,47.3167,21.6667,91.49,33,0,5.75,HU,1628440951
404,lac du bonnet,50.2536,-96.0612,82.63,48,37,10.63,CA,1628440952
405,gat,31.61,34.7642,85.05,38,0,8.23,IL,1628440591
406,strezhevoy,60.7333,77.5889,67.98,66,75,5.26,RU,1628440955
407,dembi dolo,8.5333,34.8,57.61,96,99,1.92,ET,1628440956
408,san blas,21.5167,-105.2667,87.12,59,88,3.74,MX,1628440957
409,fuzhou,26.0614,119.3061,82.29,97,25,1.01,CN,1628440959
410,panaba,21.2833,-88.2667,96.04,36,44,8.25,MX,1628440960
411,champerico,14.3,-91.9167,86.85,76,95,3.98,GT,1628440640
412,lazaro cardenas,17.9583,-102.2,83.55,75,84,3.22,MX,1628440575
413,mandera,3.9366,41.867,87.67,33,87,13.22,KE,1628440965
414,batagay,67.6333,134.6333,62.71,46,36,2.39,RU,1628440966
415,rayevskiy,54.0658,54.9468,65.19,37,2,6.62,RU,1628440967
416,praia,14.9215,-23.5087,84.74,74,40,12.66,CV,1628440969
417,puri,19.8,85.85,82.92,81,96,16.33,IN,1628440970
418,coro,11.4045,-69.6734,88.75,56,50,18.07,VE,1628440971
419,kizukuri,40.8061,140.3861,75.0,97,96,10.58,JP,1628440973
420,fenoarivo,-18.933,47.4354,59.07,67,40,10.36,MG,1628440974
421,kavieng,-2.5744,150.7967,81.0,76,90,10.07,PG,1628440561
422,sapele,5.8941,5.6767,77.13,83,92,8.46,NG,1628440976
423,kangaatsiaq,68.3065,-53.4641,41.04,94,100,16.11,GL,1628440980
424,malya,-2.9833,33.5167,75.74,38,64,2.21,TZ,1628440983
425,goderich,43.7501,-81.7165,73.76,83,100,8.05,CA,1628440855
426,abha,18.2164,42.5053,73.65,69,75,5.75,SA,1628440336
427,mangochi,-14.4782,35.2645,72.99,42,1,5.01,MW,1628440986
428,cam ranh,11.9214,109.1591,85.96,58,20,8.05,VN,1628440988
429,santander,43.4647,-3.8044,67.35,73,75,5.01,ES,1628440989
430,kovur,14.4833,79.9833,86.95,67,55,13.87,IN,1628440757
431,saurimo,-9.6608,20.3916,75.38,15,98,2.98,AO,1628440991
432,poco verde,-10.7083,-38.1833,83.01,31,52,13.89,BR,1628440993
433,palmdale,34.5794,-118.1165,82.15,15,1,7.0,US,1628440855
434,karratha,-20.7377,116.8463,68.52,66,1,3.58,AU,1628440649
435,khovu-aksy,51.1333,93.6,52.86,84,8,4.7,RU,1628440996
436,meadow lake,34.8014,-106.5436,79.74,12,0,7.02,US,1628440932
437,skagen,57.7209,10.5839,68.27,79,76,7.61,DK,1628441000
438,santa rosalia,27.3167,-112.2833,87.28,46,7,3.74,MX,1628441001
439,zhangye,38.9342,100.4517,72.64,31,65,5.32,CN,1628441003
440,ewo,-0.8725,14.8206,83.66,49,94,6.93,CG,1628441004
441,clyde river,70.4692,-68.5914,52.03,58,20,17.27,CA,1628440597
442,baculin,7.4525,126.5842,76.69,82,100,3.15,PH,1628441006
443,makakilo city,21.3469,-158.0858,71.74,71,1,0.0,US,1628440602
444,chisindia,46.2833,22.1,92.19,39,1,5.48,RO,1628441010
445,elizabeth city,36.2946,-76.2511,75.31,88,90,6.91,US,1628440910
446,wilmington,34.2257,-77.9447,85.15,71,1,4.61,US,1628440328
447,podgornoye,51.735,39.1496,86.22,26,0,6.71,RU,1628441013
448,homer,59.6425,-151.5483,54.52,87,90,6.91,US,1628441015
449,jinka,5.65,36.65,70.2,57,94,1.9,ET,1628441016
450,nagua,19.3832,-69.8474,82.45,83,75,6.91,DO,1628441017
451,abashiri,44.0213,144.2697,63.91,81,100,8.03,JP,1628440755
452,mandalgovi,45.7625,106.2708,54.61,72,0,15.77,MN,1628440954
453,kashi,39.4547,75.9797,81.61,28,20,4.47,CN,1628441021
454,kamaishi,39.2667,141.8833,76.62,98,99,8.61,JP,1628441022
455,acajutla,13.5928,-89.8275,88.14,71,100,4.05,SV,1628441024
456,ixtapa,20.7,-105.2,81.63,74,20,4.61,MX,1628441000
457,christchurch,-43.5333,172.6333,37.58,79,40,3.0,NZ,1628440957
458,gatton,-27.55,152.2833,55.72,93,42,0.87,AU,1628441027
459,miquelon,47.0975,-56.3814,68.0,96,96,11.7,PM,1628441029
460,pitkyaranta,61.5734,31.4792,63.39,95,85,4.12,RU,1628441030
461,margate,51.3813,1.3862,66.4,64,98,5.01,GB,1628440901
462,santa helena,-2.2311,-45.3,88.77,46,51,3.29,BR,1628441033
463,babanka,48.7097,30.4483,70.57,65,0,6.11,UA,1628441034
464,tarut,26.5733,50.0369,103.55,44,0,4.5,SA,1628441035
465,sambava,-14.2667,50.1667,71.22,82,24,12.68,MG,1628441037
466,yatou,37.15,122.3833,70.34,87,1,5.84,CN,1628441038
467,longyearbyen,78.2186,15.6401,44.44,81,20,10.36,SJ,1628440494
468,belaya gora,68.5333,146.4167,51.13,64,61,4.29,RU,1628441041
469,buchanan,5.8808,-10.0467,84.16,73,92,11.48,LR,1628440580
470,vestmanna,62.1564,-7.1664,52.72,94,91,9.22,FO,1628441043
471,honningsvag,70.9821,25.9704,71.35,40,0,8.05,NO,1628441044
472,okhotsk,59.3833,143.3,56.73,81,10,7.31,RU,1628440330
473,ibra,22.6906,58.5334,99.95,22,45,10.94,OM,1628441047
474,bajil,15.0584,43.2851,92.91,44,100,7.61,YE,1628441048
475,san jose,37.3394,-121.895,70.72,62,20,5.75,US,1628440841
476,kurilsk,45.2333,147.8833,53.94,82,100,13.87,RU,1628440635
477,novopokrovka,49.8425,36.5477,86.38,37,99,7.45,UA,1628441052
478,guarapari,-20.6667,-40.4975,71.49,60,42,9.57,BR,1628441053
479,necochea,-38.5473,-58.7368,53.04,46,88,9.82,AR,1628441054
480,namatanai,-3.6667,152.4333,77.68,80,99,6.26,PG,1628440647
481,richards bay,-28.783,32.0377,67.71,71,1,12.12,ZA,1628440487
482,waipawa,-41.4122,175.5153,42.71,62,100,28.36,NZ,1628441058
483,kavaratti,10.5669,72.642,80.94,81,100,17.96,IN,1628440421
484,ambilobe,-13.2,49.05,71.06,84,78,2.98,MG,1628440587
485,arlit,18.7369,7.3853,104.85,16,73,3.15,NE,1628440595
486,tekeli,44.83,78.8239,67.17,35,19,10.27,KZ,1628441063
487,uray,60.1247,64.7758,64.67,78,88,6.02,RU,1628440673
488,marquette,46.5333,-87.6335,68.36,95,100,4.43,US,1628440960
489,shymkent,42.3,69.6,86.59,20,0,6.71,KZ,1628441066
490,aklavik,68.2191,-135.0107,48.2,87,75,2.3,CA,1628440456
491,padang,-0.9492,100.3543,78.48,87,81,3.85,ID,1628440653
492,amboise,47.4125,0.9827,68.27,60,0,16.11,FR,1628441070
493,naze,28.3667,129.4833,78.22,87,50,17.11,JP,1628440605
494,vicente guerrero,19.1194,-98.1708,66.51,63,58,4.7,MX,1628441072
495,el carrizo,24.0261,-106.8814,85.06,81,53,5.01,MX,1628441074
496,tamayo,18.3947,-71.2029,87.51,66,20,13.8,DO,1628441075
497,khryashchevka,53.8119,49.0916,80.58,45,64,6.29,RU,1628441076
498,kitimat,54.0524,-128.6534,59.92,95,45,2.95,CA,1628440882
499,petropavlovsk-kamchatskiy,53.0452,158.6483,45.19,100,75,6.71,RU,1628440673
500,pozo colorado,-23.4923,-58.7972,96.31,18,2,14.52,PY,1628441081
501,cache creek,50.8101,-121.3246,63.64,72,96,3.51,CA,1628441082
502,high rock,26.6208,-78.2833,89.62,67,1,5.06,BS,1628440607
503,paralimni,35.0375,33.9833,84.06,86,0,7.0,CY,1628441085
504,kongolo,-5.3833,27.0,88.56,24,53,5.01,CD,1628441086
505,kindu,-2.95,25.95,80.01,47,66,2.21,CD,1628441087
506,yulara,-25.2406,130.9889,42.64,42,0,1.14,AU,1628440438
507,kuruman,-27.4524,23.4325,65.98,20,4,8.9,ZA,1628441090
508,labuhan,-6.8844,112.2051,79.05,86,13,8.08,ID,1628441091
509,nagato,34.3833,131.2,75.09,96,100,29.44,JP,1628441093
510,aswan,24.0934,32.907,106.9,17,0,12.66,EG,1628440997
511,waingapu,-9.6567,120.2641,73.56,79,62,8.05,ID,1628440866
512,wamba,8.9333,8.6,73.62,94,95,3.13,NG,1628441096
513,singleton,-32.5667,151.1833,48.94,95,92,3.89,AU,1628441098
514,polewali,-3.4324,119.3435,75.49,92,28,3.6,ID,1628441099
515,karlstad,59.3793,13.5036,68.56,68,72,3.44,SE,1628441100
516,kieta,-6.2167,155.6333,76.86,83,95,4.52,PG,1628441105
517,terrace,54.5163,-128.6035,58.91,94,75,2.3,CA,1628440622
518,rio gallegos,-51.6226,-69.2181,46.45,53,0,24.16,AR,1628441077
519,kuryk,43.2,51.65,95.77,20,0,5.64,KZ,1628441108
520,anito,12.4497,125.2886,77.92,88,100,3.58,PH,1628441110
521,abaete,-19.16,-45.4458,74.91,36,53,5.19,BR,1628441111
522,krasnozerskoye,53.9828,79.2374,64.06,81,96,4.43,RU,1628441112
523,kuytun,54.3419,101.5036,56.53,53,71,2.44,RU,1628441114
524,biak,-0.9131,122.8766,74.88,86,68,5.95,ID,1628441115
525,serebryansk,49.6925,83.2892,74.75,65,80,3.76,KZ,1628441116
526,harbour breton,47.4833,-55.7983,64.11,90,91,11.16,CA,1628441118
527,bara,10.3744,10.7288,83.98,75,88,7.14,NG,1628441121
528,george town,5.4112,100.3354,81.99,84,40,3.44,MY,1628441039
529,yar-sale,66.8333,70.8333,56.28,72,88,16.78,RU,1628441097
530,kudahuvadhoo,2.6708,72.8944,83.84,73,100,13.38,MV,1628441125
531,dakar,14.6937,-17.4441,87.93,70,20,13.8,SN,1628440912
532,vao,-22.6667,167.4833,67.5,59,56,18.77,NC,1628440962
533,banfora,10.6333,-4.7667,86.7,59,88,2.01,BF,1628441128
534,nhulunbuy,-12.2333,136.7667,72.21,78,5,4.61,AU,1628440561
535,jaicos,-7.3592,-41.1378,93.02,17,0,9.75,BR,1628441131
536,port keats,-14.25,129.55,65.17,31,0,6.55,AU,1628441132
537,yeppoon,-23.1333,150.7333,56.98,82,3,10.69,AU,1628440557
538,tsabong,-26.0217,22.401,71.22,15,0,10.4,BW,1628441135
539,baoro,5.6667,15.9667,70.9,94,89,3.18,CF,1628441136
540,minab,27.1467,57.0801,92.7,53,1,3.65,IR,1628441137
541,lumphat,13.4878,106.9816,75.81,97,83,1.1,KH,1628441139
542,brignoles,43.4,6.0667,80.2,27,71,13.09,FR,1628440987
543,north battleford,52.7834,-108.2847,59.09,72,90,18.41,CA,1628441141
544,ormara,25.2088,64.6357,80.65,80,71,10.07,PK,1628440891
545,inhambane,-23.865,35.3833,67.98,77,20,7.52,MZ,1628441144
546,poum,-20.2333,164.0167,68.94,69,96,22.55,NC,1628440372
547,dingle,10.9995,122.6711,76.5,91,97,3.44,PH,1628441146
548,usakos,-22.0,15.6,67.39,27,0,14.07,NA,1628441147
549,zhoucheng,35.9122,116.3117,76.48,63,68,1.7,CN,1628441149
550,san rafael,-34.6177,-68.3301,45.09,62,100,11.68,AR,1628440968
551,korla,41.7597,86.1469,82.44,30,99,7.36,CN,1628441151
552,digras,20.1167,77.7167,82.0,76,100,3.58,IN,1628441153
553,ergani,38.2653,39.7621,87.35,25,2,8.93,TR,1628441155
554,gayny,60.3071,54.3241,53.94,87,32,5.03,RU,1628441157
555,artvin,41.1667,41.8333,63.68,96,85,2.48,TR,1628441161
556,innisfail,-17.5333,146.0333,67.23,87,87,5.12,AU,1628440663
557,mitu,1.1983,-70.1733,92.71,44,50,1.52,CO,1628441164
558,menongue,-14.6585,17.691,69.51,13,51,4.97,AO,1628441165
559,fairbanks,64.8378,-147.7164,56.17,88,90,4.61,US,1628440472
560,coahuayana,18.7333,-103.6833,87.28,56,85,1.92,MX,1628440916
561,rigaud,45.4793,-74.3024,78.28,58,35,8.3,CA,1628441168
562,olhao,37.0286,-7.8411,73.29,64,0,8.05,PT,1628441170
563,otradnoye,59.7775,30.8181,71.65,89,97,3.13,RU,1628441171
564,oranjemund,-28.55,16.4333,59.16,71,88,11.97,NA,1628441173
565,manaus,-3.1019,-60.025,90.09,66,40,2.3,BR,1628440467
566,caravelas,-17.7125,-39.2481,75.81,59,16,10.4,BR,1628440496
567,leiyang,26.4024,112.8591,83.62,78,90,3.62,CN,1628441177
568,sobolevo,54.4299,31.8996,68.02,65,100,3.36,RU,1628441179
569,puro,12.4841,123.3827,81.0,83,99,5.88,PH,1628441180
570,borovskoy,53.8,64.15,59.74,80,83,10.83,KZ,1628441181
571,srandakan,-7.9386,110.2506,75.96,88,31,3.71,ID,1628441183
572,mackay,-21.15,149.2,60.78,88,75,8.05,AU,1628441184
573,komsomolskiy,40.4272,71.7189,88.52,30,0,6.91,UZ,1628440624
574,kuching,1.55,110.3333,75.42,94,20,2.3,MY,1628441187
575,sisimiut,66.9395,-53.6735,42.89,84,100,7.29,GL,1628440630
576,tevaitoa,-16.7833,-151.5,78.58,75,41,12.19,PF,1628441189
577,loralai,30.3705,68.598,84.52,32,47,10.31,PK,1628441190
578,montepuez,-13.1256,38.9997,76.91,35,43,8.25,MZ,1628441192
579,baruun-urt,46.6806,113.2792,57.85,90,91,3.76,MN,1628441193
580,povenets,62.8487,34.8262,57.96,95,100,7.34,RU,1628441194
581,novyy urengoy,66.0833,76.6333,65.88,65,13,8.37,RU,1628441196
582,antofagasta,-23.65,-70.4,60.08,64,45,12.59,CL,1628440910
583,puerto carreno,6.189,-67.4859,83.86,70,88,3.87,CO,1628441199
